{
"vets":[
  {
    "Clinic_ID": 34403,
    "Name": "VETERINARY SERVICES OF WESTWOOD LLC",
    "Address": "252 PROVIDENCE HWY",
    "City": "WESTWOOD",
    "Lat": 42.2154,
    "Lng": -71.1815,
    "State": "MA",
    "Country": "US",
    "Zip": 2090,
    "Pone": 7816869337,
    "EXT": ""
  },
  {
    "Clinic_ID": 34402,
    "Name": "ACUSHNET ANIMAL HOSPITAL INC",
    "Address": "265 MAIN ST",
    "City": "ACUSHNET",
    "Lat": 41.6903,
    "Lng": -70.9046,
    "State": "MA",
    "Country": "US",
    "Zip": 2743,
    "Pone": 5089983004,
    "EXT": 5089987161
  },
  {
    "Clinic_ID": 34401,
    "Name": "METROWEST VETERINARY ASSOCIATES",
    "Address": "207 E MAIN ST",
    "City": "MILFORD",
    "Lat": 42.1507,
    "Lng": -71.5012,
    "State": "MA",
    "Country": "US",
    "Zip": 1757,
    "Pone": 5084787300,
    "EXT": 5084787606
  },
  {
    "Clinic_ID": 34400,
    "Name": "SOUTH BELLINGHAM VETERINARY HOSPITAL",
    "Address": "435 PULASKI BLVD",
    "City": "BELLINGHAM",
    "Lat": 42.0283,
    "Lng": -71.4883,
    "State": "MA",
    "Country": "US",
    "Zip": 2019,
    "Pone": 5089281544,
    "EXT": 5085900422
  },
  {
    "Clinic_ID": 34399,
    "Name": "HURON VETERINARY HOSPITAL",
    "Address": "70 BEACON ST",
    "City": "SOMERVILLE",
    "Lat": 42.3763,
    "Lng": -71.1042,
    "State": "MA",
    "Country": "US",
    "Zip": 2143,
    "Pone": 6176619553,
    "EXT": 6176610015
  },
  {
    "Clinic_ID": 34398,
    "Name": "DUNSTABLE ANIMAL CLINIC",
    "Address": "386 MAIN ST",
    "City": "DUNSTABLE",
    "Lat": 42.6736,
    "Lng": -71.4727,
    "State": "MA",
    "Country": "US",
    "Zip": 1827,
    "Pone": 9786496513,
    "EXT": 9786496528
  },
  {
    "Clinic_ID": 34397,
    "Name": "CHAGIT STEINER DVM",
    "Address": "239 BOSTON RD",
    "City": "SUTTON",
    "Lat": 42.1526,
    "Lng": -71.7514,
    "State": "MA",
    "Country": "US",
    "Zip": 1590,
    "Pone": 5088655500,
    "EXT": ""
  },
  {
    "Clinic_ID": 34396,
    "Name": "TYNGSBORO VETERINARY HOSPITAL",
    "Address": "3 FARWELL RD",
    "City": "TYNGSBORO",
    "Lat": 42.6786,
    "Lng": -71.4232,
    "State": "MA",
    "Country": "US",
    "Zip": 1879,
    "Pone": 9786493909,
    "EXT": ""
  },
  {
    "Clinic_ID": 34394,
    "Name": "KINDNESS ANIMAL HOSPITAL LLC",
    "Address": "20 LINDEN ST",
    "City": "WALTHAM",
    "Lat": 42.3783,
    "Lng": -71.225,
    "State": "MA",
    "Country": "US",
    "Zip": 2452,
    "Pone": 7818932800,
    "EXT": ""
  },
  {
    "Clinic_ID": 34393,
    "Name": "WESTWOOD VETERINARY CARE",
    "Address": "1451 HIGH ST",
    "City": "WESTWOOD",
    "Lat": 42.2048,
    "Lng": -71.2415,
    "State": "MA",
    "Country": "US",
    "Zip": 2090,
    "Pone": 7812550033,
    "EXT": ""
  }
]
}